{
  "type": "FeatureCollection",
  "features": [
    {
      "type": "Feature",
      "properties": {
        "name": "Shivajinagar",
        "flood_risk": 2,
        "population": 20000,
        "facilities": ["hospital", "school", "shelter"]
      },
      "geometry": {
        "type": "Point",
        "coordinates": [73.8420, 18.5308]
      }
    },
    {
      "type": "Feature",
      "properties": {
        "name": "Kothrud",
        "flood_risk": 3,
        "population": 24000,
        "facilities": ["school", "shelter"]
      },
      "geometry": {
        "type": "Point",
        "coordinates": [73.8070, 18.5074]
      }
    },
    {
      "type": "Feature",
      "properties": {
        "name": "Hadapsar",
        "flood_risk": 4,
        "population": 28000,
        "facilities": ["hospital"]
      },
      "geometry": {
        "type": "Point",
        "coordinates": [73.9340, 18.4963]
      }
    },
    {
      "type": "Feature",
      "properties": {
        "name": "Baner",
        "flood_risk": 1,
        "population": 22000,
        "facilities": ["school", "hospital"]
      },
      "geometry": {
        "type": "Point",
        "coordinates": [73.7769, 18.5590]
      }
    },
    {
      "type": "Feature",
      "properties": {
        "name": "Viman Nagar",
        "flood_risk": 2,
        "population": 19000,
        "facilities": ["shelter"]
      },
      "geometry": {
        "type": "Point",
        "coordinates": [73.9112, 18.5664]
      }
    }
  ]
}
